[{"address":"7 E 10TH ST New York NY ","adrMeta":["2nd Floor"],"title":"N.Y.U Bronfman Center","wheelc":false,"meetings":[["Wednesdays","8:15 PM","9:15 PM","C"]],"details":"Only meets on the 1st Wednesday of the month. A.A.'s 12 Concepts Meeting.","lat":"40.6482599","lon":"-73.9704806"},{"address":"155 E 22ND ST New York NY ","adrMeta":["Basement","Betw Lexington & 3rd Ave.","Fri.=Topic"],"title":"Gustavus Adolphus Church","wheelc":false,"meetings":[["Thursdays","12:15 PM","1:15 PM","OD"],["Fridays","12:15 PM","1:15 PM","Op"],["Mondays","12:15 PM","1:15 PM","C"],["Tuesdays","12:15 PM","1:15 PM","BB"],["Wednesdays","12:15 PM","1:15 PM","B"]],"details":"Trad.1st Wed., Fri.=Topic, Sat.=Round Robin Sharing All meetings are non-smoking.","lat":"40.7384244","lon":"-73.9840055"},{"address":"61 FOURTH AVE New York NY ","adrMeta":["3rd Floor","9th & 10th St."],"title":"Three Jewels Community Center","wheelc":false,"meetings":[["Thursdays","6:00 PM","7:15 PM","Sp"],["Sundays","7:00 PM","8:30 PM","Sp"]],"details":"Topic meeting, focus is on meditation Thursday meeting ends at 7:10","lat":"40.6822459","lon":"-73.9795061"},{"address":"208 W 13TH ST New York NY ","adrMeta":["3rd Floor","Room #312"],"title":"Lesbian, Gay, Bi-Sexual & Transgender Community Center","wheelc":false,"meetings":[["Thursdays","12:00 PM","1:00 PM","C"]],"details":"GLBT Focus. All are welcome.","lat":"40.7381228","lon":"-74.0010304"},{"address":"123 E 15TH ST New York NY ","adrMeta":["2nd Floor Conference Room"],"title":"Seafarers & Intl House","wheelc":true,"meetings":[["Saturdays","1:00 PM","2:00 PM","S"]],"details":"","lat":"40.7346341","lon":"-73.9879773"},{"address":"61 GRAMERCY PARK N New York NY ","title":"Calvary Church Parish House","wheelc":false,"meetings":[["Wednesdays","6:30 PM","7:30 PM","C"]],"details":"","lat":"40.7387068","lon":"-73.986572"},{"address":"155 E 22ND ST New York NY ","adrMeta":["Ground Floor"],"title":"Gustavus Adolphus Lutheran Church","wheelc":true,"meetings":[["Wednesdays","7:00 PM","8:00 PM","BB"]],"details":"","lat":"40.7384244","lon":"-73.9840055"},{"address":"127 E 22ND ST New York NY ","adrMeta":["2nd Floor Auditorium"],"title":"Mabel Bacon High School of the Future","wheelc":true,"meetings":[["Sundays","7:00 PM","8:00 PM","O"]],"details":"no entry before 5:30","lat":"40.7390247","lon":"-73.9854161"},{"address":"602 E 9TH ST New York NY ","title":"Trinity Lower East Side Lutheran Parish","wheelc":true,"meetings":[["Thursdays","7:00 PM","8:15 PM","B"]],"details":"Ground Floor Anniversaries last Thursday of month","lat":"40.7260409","lon":"-73.9800393"},{"address":"125 W 14TH ST New York NY ","adrMeta":["Kuttner Room"],"title":"McBurney YMCA","wheelc":true,"meetings":[["Thursdays","7:45 PM","8:45 PM","BB"]],"details":"","lat":"40.7379244","lon":"-73.9976813"},{"address":"346 W 20TH ST New York NY ","title":"St. Peters Episcopal Church- Rectory","wheelc":false,"meetings":[["Tuesdays","8:00 AM","9:00 AM","B"],["Mondays","8:00 AM","9:00 AM","OD"],["Wednesdays","8:00 AM","9:00 AM","Op"],["Thursdays","8:00 AM","9:00 AM","S"],["Fridays","8:00 AM","9:00 AM","BB"],["Saturdays","8:00 AM","9:00 AM","C"]],"details":"Wed. alternates between Step and Tradition","lat":"40.7441452","lon":"-74.0019191"},{"address":"125 W 14TH ST New York NY ","adrMeta":["Ground Floor"],"title":"McBurney YMCA","wheelc":true,"meetings":[["Tuesdays","12:00 PM","1:00 PM","C"],["Thursdays","12:00 PM","1:00 PM","C"]],"details":"Anniv. Last Thursday All Meetings Are Non-Smoking","lat":"40.7379244","lon":"-73.9976813"},{"address":"414 E 14TH ST New York NY ","adrMeta":["Auditorium"],"title":"Our Lady of Immaculate Conception","wheelc":true,"meetings":[["Wednesdays","8:30 PM","9:30 PM","S"]],"details":"","lat":"40.7309298","lon":"-73.9819876"},{"address":"119 NINTH AVE New York NY ","adrMeta":["Betw. 17th and 18th St."],"title":"Fulton Senior Center","wheelc":true,"meetings":[["Mondays","6:45 PM","8:00 PM","OD"]],"details":"Non-Smoking Meeting.","lat":"40.7432442","lon":"-74.0039393"},{"address":"202 W 24 ST New York NY ","adrMeta":["Mezzanine"],"title":"Christopher House","wheelc":true,"meetings":[["Saturdays","4:00 PM","5:00 PM","O"],["Sundays","4:00 PM","5:00 PM","Op"]],"details":"Check in at front desk all meetings are non-smoking","lat":"40.7449478","lon":"-73.995862"},{"address":"28 GRAMERCY PARK S New York NY ","adrMeta":["1st Floor"],"title":"Brotherhood Synagogue","wheelc":true,"meetings":[["Wednesdays","7:00 PM","8:00 PM","C"]],"details":"*Open Anniv Last Wednesday Non-Smoking Meeting.","lat":"40.7371499","lon":"-73.9853123"},{"address":"50 E 7TH ST New York NY ","adrMeta":["3rd and 4th floors","@2nd Ave."],"title":"Middle Collegiate Church","wheelc":false,"meetings":[["Tuesdays","7:00 PM","8:00 PM","O"],["Saturdays","7:00 PM","8:00 PM","Op"],["Saturdays","7:00 PM","8:00 PM","B"],["Sundays","7:00 PM","8:00 PM","OD"],["Tuesdays","7:00 PM","8:15 PM","Op"],["Tuesdays","8:30 PM","9:30 PM","BB"],["Saturdays","8:30 PM","9:30 PM","S"]],"details":"LGBT; all welcome. Tues 7pm=Artists in Recovery, all welcome. 8:30 1st Tues of Month Bus mtg. at 8:05","lat":"40.6519369","lon":"-73.9750389"},{"address":"273 BOWERY New York NY ","adrMeta":["2nd Floor Classroom"],"title":"University Settlement House","wheelc":true,"meetings":[["Wednesdays","7:00 PM","8:00 PM","C"]],"details":"","lat":"40.7236736","lon":"-73.9924832"},{"address":"802 BROADWAY New York NY ","adrMeta":["3rd Floor Conference Room"],"title":"Grace Church Office Building","wheelc":true,"meetings":[["Mondays","8:15 AM","9:15 AM","O"],["Tuesdays","8:15 AM","9:15 AM","Op"],["Thursdays","8:15 AM","9:15 AM","C"]],"details":"","lat":"40.7320395","lon":"-73.991189"},{"address":"28 GRAMMERCY PARK S New York NY ","adrMeta":["2nd floor"],"title":"Brothhood Synagogue","wheelc":true,"meetings":[["Mondays","6:30 PM","7:30 PM","C"],["Thursdays","6:30 PM","7:30 PM","S"]],"details":"Last Mon.6:30pm=Anniv Last Thursday Tradition","lat":"40.7371499","lon":"-73.9853123"},{"address":"209 E 16TH ST New York NY ","adrMeta":["Basement","Betw 3rd Ave.","Thu=11th St."],"title":"Saint George Episcopal Church","wheelc":false,"meetings":[["Mondays","5:00 PM","6:00 PM","B"],["Fridays","5:00 PM","6:00 PM","BB"],["Tuesdays","5:00 PM","6:00 PM","O"],["Thursdays","5:00 PM","6:00 PM","Op"],["Sundays","5:00 PM","6:00 PM","Sp"],["Wednesdays","5:00 PM","6:00 PM","O"],["Mondays","6:15 PM","7:00 PM","Op"]],"details":"Tue.Topic=Gratitude, Thu=11th Step Meditation Meeting,","lat":"40.7345135","lon":"-73.9854432"},{"address":"44 2ND AVE New York NY ","adrMeta":["Main Floor"],"title":"Church of the Nativity","wheelc":false,"meetings":[["Sundays","8:00 PM","9:00 PM","O"]],"details":"Spanish speaking meeting.","lat":"40.7251086","lon":"-73.9899858"},{"address":"229 W 14TH ST New York NY ","title":"Our Lady of Guadalupe Church","wheelc":false,"meetings":[["Mondays","8:00 PM","9:00 PM","Sp"],["Tuesdays","8:00 PM","9:00 PM","C"]],"details":"Mon=Step 1st Mon. Spanish speaking meetings.","lat":"40.7392489","lon":"-74.0008788"},{"address":"229 W 14TH ST New York NY ","title":"Our Lady of Guadalupe Church","wheelc":false,"meetings":[["Tuesdays","1:00 PM","2:00 PM","C"]],"details":"Spanish speaking meeting.","lat":"40.7392489","lon":"-74.0008788"},{"address":"208 W 13TH ST New York NY ","title":"Lesbian, Gay, Bi-Sexual & Transgender Community Center","wheelc":true,"meetings":[["Sundays","12:00 PM","1:00 PM","O"]],"details":"Interpreted for the deaf and hard of hearing Check listing at the center for the room number.","lat":"40.7381228","lon":"-74.0010304"},{"address":"28 GRAMERCY PARK S New York NY ","title":"Brotherhood Synagogue","wheelc":true,"meetings":[["Tuesdays","7:00 PM","8:00 PM","S"]],"details":"Please Do Not Call the Synagogue for Meeting Info.","lat":"40.7371499","lon":"-73.9853123"},{"address":"208 W 13TH ST New York NY ","adrMeta":["Room 212"],"title":"Lesbian, Gay, Bisexual, & Transgender Community Center","wheelc":true,"meetings":[["Saturdays","8:00 PM","9:00 PM","O"]],"details":"LA Transplants/Vistors All Welcome","lat":"40.7381228","lon":"-74.0010304"},{"address":"307 W 26TH ST New York NY ","title":"The Upright Citizens Brigade Theatre","wheelc":true,"meetings":[["Thursdays","12:00 PM","1:00 AM","C"],["Mondays","12:00 PM","1:00 PM","Sp"],["Tuesdays","12:00 PM","1:00 PM","B"],["Wednesdays","12:00 PM","1:00 PM","BB"],["Fridays","12:00 PM","1:00 PM","S"]],"details":"","lat":"40.7474685","lon":"-73.9974137"},{"address":"343 W 25TH ST New York NY ","title":"St. Columba Church","wheelc":false,"meetings":[["Mondays","7:00 PM","8:00 PM","O"]],"details":"","lat":"40.747411","lon":"-73.9992698"},{"address":"80 ST New York NY ","adrMeta":["2nd Floor","Betw. 1st & 2nd Ave."],"title":"Theatre 80","wheelc":false,"meetings":[["Saturdays","10:00 AM","11:00 AM","O"],["Sundays","10:00 AM","11:00 AM","Op"],["Sundays","10:15 AM","11:15 AM","OD"],["Thursdays","1:00 PM","2:00 PM","Op"],["Saturdays","1:00 PM","2:00 PM","C"],["Mondays","1:00 PM","2:00 PM","S"],["Tuesdays","1:00 PM","2:00 PM","OD"],["Wednesdays","1:00 PM","2:00 PM","Op"],["Fridays","1:00 PM","2:00 PM","Sp"],["Sundays","2:00 PM","3:00 PM","OD"],["Saturdays","5:30 PM","6:30 PM","Op"],["Wednesdays","6:00 PM","7:00 PM","O"],["Thursdays","7:00 PM","8:00 PM","Op"],["Tuesdays","7:00 PM","8:00 PM","OD"]],"details":"Tue.7pm=4th & 5th Step Workshop, **Beginners 3 speaker panel Sat.& Sun.10am Meeting is in the main theatre.","lat":"40.7060856332181","lon":"-74.0162322706993"},{"address":"208 W 13TH ST New York NY ","adrMeta":["Betw. 7th & 8th Ave.","Lesbian and Bisexual Sundays From 8:00 PM to 9:00 PM Meeting Type O = Open meeting Special Interest Gay"],"title":"Lesbian, Gay, Bi-Sexual & Transgender Community Center","wheelc":true,"meetings":[["Sundays","6:45 PM","7:45 PM","S"],["Sundays","8:00 PM","9:00 PM","Sp"]],"details":"Gay & lesbian focus. All are welcome.","lat":"40.7381228","lon":"-74.0010304"},{"address":"51 E 25TH ST New York NY ","adrMeta":["Lower Level"],"title":"Intercare","wheelc":true,"meetings":[["Wednesdays","10:00 AM","11:00 AM","B"],["Thursdays","5:30 PM","6:30 PM","B"]],"details":"","lat":"40.7419488","lon":"-73.9861549"},{"address":"155 E 22ND ST New York NY ","adrMeta":["Basement"],"title":"Gustavus Adolphus Church","wheelc":false,"meetings":[["Tuesdays","7:00 PM","8:00 PM","B"],["Fridays","7:00 PM","8:15 PM","S"]],"details":"Open Anniv Last Tuesday. All meetings are non-smoking.","lat":"40.7384244","lon":"-73.9840055"},{"address":"7 E 10TH ST New York NY ","adrMeta":["2nd Floor Note: A photo ID is required to enter the building.","Betw 5th Ave.","Thu.12:30pm=Topic"],"title":"Bronfman Center","wheelc":false,"meetings":[["Fridays","12:30 PM","1:30 PM","S"],["Mondays","12:30 PM","1:30 PM","C"],["Tuesdays","12:30 PM","1:30 PM","BB"],["Wednesdays","12:30 PM","1:30 PM","B"],["Thursdays","12:30 PM","1:30 PM","C"],["Fridays","2:00 PM","3:00 PM","B"],["Mondays","2:00 PM","3:00 PM","C"],["Tuesdays","2:00 PM","3:00 PM","Sp"],["Wednesdays","2:00 PM","3:00 PM","S"],["Thursdays","2:00 PM","3:00 PM","BB"]],"details":"Tue.2pm=11th Step Meditation, Thu.12:30pm=Topic, Fri.12:30pm Note: There Is No 2:00 Meeting On The Last Day Of The Month Anniv. Last Weekday of the Month","lat":"40.7332068","lon":"-73.9946888"},{"address":"315 W 22ND ST New York NY ","adrMeta":["1st Floor"],"title":"German Evangelist Lutheran Church of St. Paul","wheelc":false,"meetings":[["Thursdays","8:00 PM","9:00 PM","OD"]],"details":"Anniv. Last Thursday","lat":"40.7450587","lon":"-73.9997029"},{"address":"15 RUTHERFORD PL New York NY ","adrMeta":["Basement","Betw 2nd & 3rd Ave."],"title":"Friends Meeting House","wheelc":false,"meetings":[["Fridays","7:00 PM","8:00 PM","B"],["Mondays","7:00 PM","8:30 PM","S"],["Fridays","8:30 PM","9:30 PM","C"]],"details":"T 1st Monday, Anniv Last Friday. All meetings are non-smoking.","lat":"40.7337834","lon":"-73.985098"},{"address":"25 E 15TH CONFERENCE New York NY ","title":"The Realization Center","wheelc":false,"meetings":[["Wednesdays","8:00 PM","9:00 PM","S"]],"details":"","lat":"40.7361047","lon":"-73.9914936"},{"address":"175 9TH AVE New York NY ","adrMeta":["1st and 2nd Floor","Enter thru gate on 21st St.","Fri.7:15pm O=Anniv Last Friday"],"title":"General Theological Seminary","wheelc":false,"meetings":[["Fridays","6:00 PM","7:00 PM","OD"],["Fridays","6:00 PM","7:00 PM","CD"],["Fridays","6:00 PM","7:00 PM","B"],["Fridays","7:15 PM","8:15 PM","C"],["Fridays","7:15 PM","8:15 PM","OD"],["Fridays","7:15 PM","8:15 PM","Op"],["Fridays","7:15 PM","8:15 PM","Sp"],["Fridays","8:30 PM","9:30 PM","BB"]],"details":"Fri.6pm OD=11th Step Meditation, Fri.7:15pm O=Anniv Last Friday, +HIV Topic LGBTQ Friendly. All are welcome. Fri 7:15 CD=Relationships in Sobriety Business meeting at Holy Apostoles on 1st Monday a","lat":"40.6717826","lon":"-73.9914048"},{"address":"19 UNION SQ W New York NY ","adrMeta":["7th Floor","Conference Room B"],"title":"The Realization Center","wheelc":true,"meetings":[["Tuesdays","8:00 PM","9:00 PM","C"]],"details":"Women's Meeting except for last Tuesday of the month.","lat":"40.7360864","lon":"-73.9912277"},{"address":"155 E 22ND ST New York NY ","adrMeta":["1st Floor","Between Lexington & 3rd Ave."],"title":"Gustavus Adolphus Church","wheelc":false,"meetings":[["Mondays","6:45 PM","7:45 PM","B"],["Mondays","6:45 PM","7:45 PM","Sp"],["Tuesdays","6:45 PM","7:45 PM","BB"],["Thursdays","6:45 PM","7:45 PM","Sp"],["Tuesdays","6:45 PM","7:45 PM","S"]],"details":"Mon.BB Meeting is in the basement, Tue.6:45pm=T Last Tue. Basement is not Wheel Chair Accessible.","lat":"40.7384244","lon":"-73.9840055"},{"address":"423 E 23RD ST New York NY ","adrMeta":["3rd fl","Conference Room 3076 south"],"title":"Veterans Administration Hospital","wheelc":true,"meetings":[["Saturdays","9:00 PM","10:00 PM","OD"]],"details":"","lat":"40.6397204","lon":"-73.9559472"},{"address":"209 E 16TH ST New York NY ","adrMeta":["Olmstead Hall","Betw 3rd Ave."],"title":"St. George's Church","wheelc":false,"meetings":[["Mondays","6:00 PM","6:00 PM","O"],["Tuesdays","6:00 PM","7:00 PM","Op"],["Wednesdays","6:00 PM","7:00 PM","S"],["Thursdays","6:00 PM","7:00 PM","BB"],["Fridays","6:00 PM","7:00 PM","C"]],"details":"T Last Tuesday, Thu.=Topic","lat":"40.6452634","lon":"-73.9641398"},{"address":"411 E 12TH ST New York NY ","title":"","wheelc":false,"meetings":[["Sundays","1:30 PM","2:30 PM","OD"]],"details":"","lat":"40.729824","lon":"-73.982816"},{"address":"209 E 16TH ST New York NY ","title":"St. George's Church","wheelc":false,"meetings":[["Saturdays","10:30 AM","11:30 AM","B"],["Saturdays","10:30 AM","11:30 AM","BB"]],"details":"Beginners meeting meets in Olmsted Hall Big Book topic meeting meets in the Music Room","lat":"40.7345135","lon":"-73.9854432"},{"address":"239 E 21ST ST New York NY ","adrMeta":["Church Rectory"],"title":"Epiphany Roman Catholic Church","wheelc":false,"meetings":[["Saturdays","10:00 AM","11:00 AM","C"]],"details":"","lat":"40.7369141","lon":"-73.9823276"},{"address":"12 W 12TH ST New York NY ","adrMeta":["6th Floor-Roof Level"],"title":"First Presbyterian Church","wheelc":true,"meetings":[["Fridays","6:30 PM","7:45 PM","B"],["Tuesdays","7:15 PM","8:30 PM","Sp"]],"details":"Tue=S Last Tue. & focus is on women with 5 years of sobriety or more. All are welcome Fri=O Last Fri. & focus is on women with 5 years of sobriety or less. All are welcome. Friday beginners = Trans Welcome","lat":"40.7348062","lon":"-73.9951634"},{"address":"44 2nd Ave.","title":"Church of the Nativity","wheelc":false,"meetings":[["Sundays","5:00 PM","6:00 PM","C"]],"details":""},{"address":"208 West 13th St.","title":"Lesbian, Gay, Bi-Sexual & Transgender Community Center","wheelc":false,"meetings":[["Saturdays","9:30 PM","10:30 PM","OD"]],"details":"S&M Lifestyles"},{"address":"12 W 11TH ST New York NY ","adrMeta":["Ground Floor","Betw 5th Ave.","Fri=Topic"],"title":"Church of the Ascension Parish House","wheelc":false,"meetings":[["Mondays","7:30 AM","8:30 AM","B"],["Tuesdays","7:30 AM","8:30 AM","S"],["Wednesdays","7:30 AM","8:30 AM","C"],["Thursdays","7:30 AM","8:30 AM","BB"],["Fridays","7:30 AM","8:30 AM","OD"],["Saturdays","7:30 AM","8:30 AM","Op"]],"details":"T Last Tue., Fri=Topic, Sat=11th Step Meditation","lat":"40.7341868","lon":"-73.9957178"},{"address":"116 West 11th St.","title":"PS 41 Elementary School","wheelc":false,"meetings":[["Fridays","7:00 PM","8:00 PM","O"]],"details":""},{"address":"80 5TH AVE New York NY ","adrMeta":["14th Floor","Room #1408C"],"title":"","wheelc":true,"meetings":[["Saturdays","6:15 PM","7:15 PM","C"]],"details":"","lat":"40.7358709","lon":"-73.9939317"},{"address":"116 W 11TH ST New York NY ","adrMeta":["Cafeteria"],"title":"P.S. 41 (see footnote re: temp location)","wheelc":true,"meetings":[["Sundays","6:00 PM","7:00 PM","BB"]],"details":"TEMPORARILY MEETING AT THE LGBT CENTER 208 W 13TH UNTIL FURTHER NOTICE","lat":"40.7355598","lon":"-73.9990141"},{"address":"155 E 22ND ST New York NY ","title":"Gustavus Adolphus Church","wheelc":false,"meetings":[["Sundays","9:00 AM","10:00 AM","C"]],"details":"Meeting In Basement 11th Step Meditation Meeting","lat":"40.7384244","lon":"-73.9840055"},{"address":"319 Eastr 24th St.","title":"East Midtown Plaza (Community Room H)","wheelc":true,"meetings":[["Sundays","12:30 PM","1:30 PM","OD"]],"details":""},{"address":"10 East Union Square","adrMeta":["4th Floor","Conf.Rm.#4A18"],"title":"Beth Israel Hospital @ Karpas Cancer Center Library","wheelc":true,"meetings":[["Tuesdays","7:00 PM","8:00 PM","OD"]],"details":"Focus is on dealing with cancer in recovery. All are welcome"},{"address":"206-208 East 11th St.","adrMeta":["Btw. 2nd & 3rd Ave."],"title":"All Saints Ukrainian Orthodox Church","wheelc":false,"meetings":[["Sundays","7:00 PM","8:00 PM","C"],["Mondays","7:00 PM","8:15 PM","Sp"],["Tuesdays","9:00 PM","10:00 PM","B"]],"details":"Sunday=As Bill Sees It Ukrainian language translation is available if needed."},{"address":"123 E 15TH ST New York NY ","adrMeta":["2nd Floor"],"title":"Seafarers & International House","wheelc":true,"meetings":[["Fridays","7:30 PM","8:30 PM","B"],["Fridays","7:30 PM","8:30 PM","B"],["Sundays","8:30 PM","9:30 PM","OD"],["Fridays","8:45 PM","9:45 PM","Op"]],"details":"Fri B = 1st Time in AA Only","lat":"40.7346341","lon":"-73.9879773"},{"address":"411 East 12th St.","adrMeta":["Basement","Betw 1st Ave.","Tue.5:30"],"title":"","wheelc":false,"meetings":[["Wednesdays","12:00 AM","12:00 AM","C"],["Thursdays","6:15 AM","7:15 AM","OD"],["Wednesdays","7:30 AM","8:30 AM","Op"],["Tuesdays","7:30 AM","8:30 AM","S"],["Mondays","7:30 AM","8:30 AM","OD"],["Saturdays","7:30 AM","8:30 AM","Op"],["Fridays","7:30 AM","8:30 AM","OD"],["Sundays","7:30 AM","8:30 AM","Op"],["Saturdays","7:30 AM","8:30 AM","C"],["Sundays","9:00 AM","10:00 AM","OD"],["Fridays","9:30 AM","10:30 AM","Op"],["Thursdays","10:00 AM","11:00 AM","S"],["Wednesdays","10:00 AM","11:00 AM","OD"],["Tuesdays","10:00 AM","11:00 AM","Op"],["Mondays","10:00 AM","11:00 AM","OD"],["Saturdays","10:00 AM","11:00 AM","Op"],["Sundays","10:30 AM","11:30 AM","OD"],["Mondays","11:00 AM","12:00 PM","Op"],["Fridays","11:15 AM","12:15 PM","BB"],["Thursdays","12:30 PM","1:30 PM","OD"],["Wednesdays","12:30 PM","1:30 PM","Op"],["Tuesdays","12:30 PM","1:30 PM","OD"],["Mondays","12:30 PM","1:30 PM","Op"],["Saturdays","12:30 PM","1:30 PM","S"],["Sundays","1:15 PM","2:15 PM","Sp"],["Mondays","1:30 PM","2:30 PM","S"],["Fridays","2:00 PM","3:00 PM","BB"],["Thursdays","2:00 PM","3:00 PM","BB"],["Wednesdays","2:00 PM","3:00 PM","OD"],["Tuesdays","2:00 PM","3:00 PM","Op"],["Saturdays","2:00 PM","3:00 PM","B"],["Sundays","2:30 PM","3:30 PM","B"],["Mondays","3:00 PM","4:00 PM","BB"],["Fridays","4:00 PM","5:00 PM","S"],["Thursdays","4:00 PM","5:00 PM","C"],["Wednesdays","4:00 PM","5:00 PM","Sp"],["Tuesdays","4:00 PM","5:00 PM","Sp"],["Saturdays","4:00 PM","5:00 PM","OD"],["Sundays","4:30 PM","5:30 PM","Op"],["Mondays","4:30 PM","5:30 PM","S"],["Fridays","5:30 PM","6:30 PM","S"],["Thursdays","5:30 PM","6:30 PM","OD"],["Wednesdays","5:30 PM","6:30 PM","Op"],["Tuesdays","5:30 PM","6:30 PM","O"],["Saturdays","5:30 PM","6:30 PM","Op"],["Sundays","6:00 PM","7:00 PM","OD"],["Tuesdays","6:00 PM","7:00 PM","Op"],["Mondays","7:00 PM","8:00 AM","B"],["Fridays","7:00 PM","8:00 PM","S"],["Thursdays","7:00 PM","8:00 PM","Sp"],["Wednesdays","7:00 PM","8:00 PM","OD"],["Sundays","7:00 PM","8:00 PM","Op"],["Saturdays","7:30 PM","8:30 PM","OD"],["Mondays","8:00 PM","9:00 PM","Op"],["Thursdays","8:15 PM","9:15 PM","OD"],["Wednesdays","8:15 PM","9:15 PM","Op"],["Tuesdays","8:30 PM","9:30 PM","OD"],["Fridays","8:30 PM","9:30 PM","Op"]],"details":"Sun.4:30=Business Mtg Only 1st & Anniv Last Sunday Sun.7:30pm,Tue.5:30,Wed.8:30pm & Sat.10:30am=11th Step Meditation Mon.5:30=Gratitude & Sat.7:30am=AA Grapevine"},{"address":"125 W 14TH ST New York NY ","adrMeta":["1st Floor Meeting Room"],"title":"McBurney YMCA","wheelc":true,"meetings":[["Fridays","7:00 PM","8:00 PM","B"]],"details":"","lat":"40.7379244","lon":"-73.9976813"},{"address":"208 West 13th St.","title":"LGBT Community Center","wheelc":true,"meetings":[["Sundays","4:00 PM","5:00 PM","C"]],"details":"Trans-female focus"},{"address":"10 UNION SQ E New York NY ","adrMeta":["2nd Floor","Conference Room #3"],"title":"Beth Israel Phillips Ambulatory Center","wheelc":true,"meetings":[["Fridays","6:00 PM","7:00 PM","S"]],"details":"","lat":"40.7348335","lon":"-73.9897815"},{"address":"155 W 22ND ST New York NY ","adrMeta":["1st Floor"],"title":"St. Francis Residence","wheelc":true,"meetings":[["Sundays","12:45 PM","1:45 PM","S"]],"details":"","lat":"40.7431787","lon":"-73.9952777"},{"address":"208 W 13TH ST New York NY ","title":"Lesbian, Gay, Bi-Sexual & Transgender Community Center","wheelc":false,"meetings":[["Sundays","4:00 PM","5:00 PM","C"],["Sundays","5:30 PM","6:30 PM","Sp"]],"details":"Sun.5:30pm meets only on the last Sunday of the month No Prayers - All Welcome - Check listing for Rm #","lat":"40.7381228","lon":"-74.0010304"},{"address":"12 W 12TH ST New York NY ","adrMeta":["Third Floor","at 5th Ave."],"title":"First Presbyterian Church","wheelc":true,"meetings":[["Tuesdays","6:30 PM","7:30 PM","Op"]],"details":"1st & 3rd Wk=Step/Big Book , 2nd & 4th Wk=Promises","lat":"40.7348062","lon":"-73.9951634"},{"address":"20 WASHINGTON SQ N New York NY ","adrMeta":["2nd Floor"],"title":"The Caring Community","wheelc":true,"meetings":[["Thursdays","3:30 PM","4:30 PM","C"]],"details":"","lat":"40.7319436","lon":"-73.9977667"},{"address":"344 E 14TH ST New York NY ","title":"14th Street Y","wheelc":true,"meetings":[["Sundays","10:00 AM","11:00 AM","S"]],"details":"Please Do Not Call the Y for Meeting Info.","lat":"40.7314102","lon":"-73.9832013"},{"address":"155 West 22nd St.","adrMeta":["1st Floor"],"title":"St. Francis Residence","wheelc":false,"meetings":[["Tuesdays","6:00 PM","7:00 PM","C"]],"details":""},{"address":"208 W 13TH ST New York NY ","adrMeta":["Betw. 7th & 8th Ave.","Lesbian and Bisexual Thursdays From 9:00 PM to 10:00 PM Meeting Type OD = Open Discussion meeting Special Interest Gay"],"title":"Lesbian, Gay, Bi-Sexual & Transgender Community Center","wheelc":true,"meetings":[["Tuesdays","7:30 PM","8:30 PM","OD"],["Thursdays","9:00 PM","10:00 PM","Op"]],"details":"Lesbian and gay focus. All are welcome Meeting format is \"Round Robin.\"","lat":"40.7381228","lon":"-74.0010304"},{"address":"602 E 9TH ST New York NY ","adrMeta":["Ground Floor"],"title":"Trinity Lutheran Church","wheelc":true,"meetings":[["Tuesdays","7:30 PM","8:30 PM","BB"]],"details":"","lat":"40.7260409","lon":"-73.9800393"},{"address":"208 W 13TH ST New York NY ","title":"Gay, Lesbian, Bi-Sexual & Transgender Community Center","wheelc":false,"meetings":[["Tuesdays","6:00 PM","7:00 PM","C"]],"details":"Topic Meeting & Anniv. Last Tuesday.","lat":"40.7381228","lon":"-74.0010304"},{"address":"208 W 13TH ST New York NY ","title":"Lesbian, Gay, Bi-Sexual & Transgender Community Center","wheelc":true,"meetings":[["Saturdays","6:00 PM","7:00 PM","C"]],"details":"Women's Meeting Lesbian Focus. All are welcome","lat":"40.7381228","lon":"-74.0010304"},{"address":"19 UNION SQ W New York NY ","adrMeta":["7th Floor","Ask for room #."],"title":"Realization Center","wheelc":true,"meetings":[["Saturdays","11:00 AM","12:00 PM","C"]],"details":"11th Step Meditation Meeting.","lat":"40.7360864","lon":"-73.9912277"},{"address":"173 E 3RD ST New York NY ","title":"Most Holy Redeemer Church","wheelc":false,"meetings":[["Mondays","7:00 PM","8:00 PM","B"]],"details":"Rotating Literature","lat":"40.7233431","lon":"-73.9843062"},{"address":"50 E 7TH ST New York NY ","title":"Middle Collegiate Church ","wheelc":false,"meetings":[["Fridays","8:00 PM","9:30 PM","C"]],"details":"Basement","lat":"40.7276522","lon":"-73.9875923"}]