[{"address":"252 W 46TH ST New York NY ","adrMeta":["3rd Floor"],"title":"46th Street Club House","wheelc":false,"meetings":[["Sundays","4:00 PM","5:00 PM","BB"],["Mondays","4:00 PM","5:00 PM","BB"],["Tuesdays","4:00 PM","5:00 PM","BB"],["Wednesdays","4:00 PM","5:00 PM","Sp"],["Thursdays","4:00 PM","5:00 PM","BB"],["Fridays","4:00 PM","5:00 PM","BB"],["Saturdays","4:00 PM","5:00 PM","BB"]],"details":"","lat":"40.7593831","lon":"-73.9872329"},{"address":"303 W 42ND ST New York NY ","adrMeta":["Room #404"],"title":"","wheelc":false,"meetings":[["Mondays","9:15 PM","10:15 PM","BB"],["Wednesdays","9:15 PM","10:15 PM","C"],["Thursdays","9:15 PM","10:15 PM","Sp"],["Fridays","9:15 PM","10:15 PM","S"],["Saturdays","9:15 PM","10:15 PM","S"],["Sundays","9:15 PM","10:15 PM","C"],["Tuesdays","9:15 PM","10:30 PM","OD"]],"details":"Sat=A.A. Literature","lat":"40.7575385","lon":"-73.9901368"},{"address":"303 W 42ND ST New York NY ","adrMeta":["3rd Floor","Room #306","Betw. 8th & 9th Ave.","Wed=Gratitude"],"title":"","wheelc":false,"meetings":[["Wednesdays","8:00 AM","9:00 AM","OD"],["Thursdays","8:00 AM","9:00 AM","Op"],["Fridays","8:00 AM","9:00 AM","C"],["Saturdays","8:00 AM","9:00 AM","Sp"],["Sundays","8:00 AM","9:00 AM","T"],["Mondays","8:00 AM","9:00 AM","OD"],["Tuesdays","8:00 AM","9:00 AM","Op"]],"details":"Sun=11th Step, Wed=Gratitude, Thu=Daily Reflections","lat":"40.7575385","lon":"-73.9901368"},{"address":"305 7TH AVE New York NY ","adrMeta":["6th Floor"],"title":"S.A.G.E.","wheelc":true,"meetings":[["Wednesdays","8:00 PM","9:00 PM","OD"]],"details":"","lat":"40.7467107","lon":"-73.9935208"},{"address":"1 W 53RD ST New York NY ","adrMeta":["3rd Floor","Andrew Hall","Betw 5th & 6th Ave."],"title":"Saint Thomas Church","wheelc":true,"meetings":[["Fridays","7:00 PM","8:00 PM","O"]],"details":"Gay & Lesbian Focus. All are welcome.","lat":"40.7608523","lon":"-73.9765938"},{"address":"303 W 42ND ST New York NY ","adrMeta":["3rd Floor","Room #306"],"title":"","wheelc":false,"meetings":[["Mondays","12:00 PM","1:00 PM","C"],["Thursdays","12:00 PM","1:00 PM","C"],["Saturdays","12:00 PM","1:00 PM","B"],["Tuesdays","12:00 PM","1:00 PM","C"],["Sundays","12:00 PM","1:00 PM","C"],["Wednesdays","12:00 PM","1:00 PM","C"],["Fridays","12:00 PM","1:00 PM","C"],["Sundays","2:00 PM","3:00 PM","C"],["Mondays","2:30 PM","3:30 PM","Sp"],["Saturdays","2:30 PM","3:30 PM","C"],["Thursdays","2:30 PM","3:30 PM","C"],["Tuesdays","2:30 PM","3:30 PM","C"],["Wednesdays","2:30 PM","3:30 PM","C"],["Fridays","2:30 PM","3:30 PM","C"],["Mondays","6:15 PM","7:15 PM","C"],["Saturdays","6:15 PM","7:15 PM","C"],["Thursdays","6:15 PM","7:15 PM","C"],["Tuesdays","6:15 PM","7:15 PM","S"],["Sundays","6:15 PM","7:15 PM","C"],["Wednesdays","6:15 PM","7:15 PM","C"],["Fridays","6:15 PM","7:15 PM","C"],["Fridays","8:00 PM","9:00 PM","C"],["Mondays","8:00 PM","9:00 PM","C"],["Saturdays","8:00 PM","9:00 PM","C"],["Thursdays","8:00 PM","9:00 PM","C"],["Sundays","8:00 PM","9:00 PM","C"],["Wednesdays","8:00 PM","9:00 PM","C"]],"details":"Sun.2pm=Women's Meeting","lat":"40.7575385","lon":"-73.9901368"},{"address":"133 W 46TH ST New York NY ","adrMeta":["3rd Floor"],"title":"St. Mary the Virgin Church","wheelc":false,"meetings":[["Mondays","7:30 AM","8:30 AM","C"],["Tuesdays","7:30 AM","8:30 AM","C"],["Wednesdays","7:30 AM","8:30 AM","C"],["Thursdays","7:30 AM","8:30 AM","S"],["Fridays","7:30 AM","8:30 AM","C"]],"details":"T Last Thursday All meetings are non-smoking.","lat":"40.6589343","lon":"-73.9348705"},{"address":"441 W 26TH ST New York NY ","adrMeta":["2nd Fl.","Activity Room A"],"title":"Hudson Guild","wheelc":true,"meetings":[["Saturdays","3:00 PM","4:00 PM","OD"]],"details":"","lat":"40.7495486","lon":"-74.0015106"},{"address":"446 W 33RD ST New York NY ","adrMeta":["6th Floor","Room #6046","@ 10th Ave."],"title":"GMHC","wheelc":true,"meetings":[["Tuesdays","8:00 PM","9:00 PM","O"]],"details":"Gay & Lesbian focus. All are welcome.","lat":"40.753496","lon":"-73.9989428"},{"address":"252 W 46TH ST New York NY ","adrMeta":["3rd Floor"],"title":"46th Street Clubhouse","wheelc":false,"meetings":[["Tuesdays","9:15 PM","10:15 PM","C"]],"details":"All are welcome.","lat":"40.7593831","lon":"-73.9872329"},{"address":"252 W 46TH ST New York NY ","adrMeta":["3rd Floor"],"title":"46th Street Club House","wheelc":false,"meetings":[["Mondays","1:30 PM","2:30 PM","B"],["Tuesdays","1:30 PM","2:30 PM","Sp"],["Wednesdays","1:30 PM","2:30 PM","B"],["Thursdays","1:30 PM","2:30 PM","Sp"],["Fridays","1:30 PM","2:30 PM","B"],["Saturdays","1:30 PM","2:30 PM","Sp"]],"details":"Readings from Living Sober","lat":"40.7593831","lon":"-73.9872329"},{"address":"252 W 46TH ST New York NY ","adrMeta":["3rd Floor"],"title":"46th Street Club House","wheelc":false,"meetings":[["Sundays","2:45 PM","3:45 PM","B"],["Mondays","2:45 PM","3:45 PM","B"],["Tuesdays","2:45 PM","3:45 PM","B"],["Wednesdays","2:45 PM","3:45 PM","B"],["Thursdays","2:45 PM","3:45 PM","B"],["Fridays","2:45 PM","3:45 PM","B"],["Saturdays","2:45 PM","3:45 PM","B"]],"details":"","lat":"40.7593831","lon":"-73.9872329"},{"address":"339 W 47TH ST New York NY ","title":"The Actor's Temple","wheelc":false,"meetings":[["Wednesdays","5:00 PM","6:00 PM","C"]],"details":"Non-Smoking Meeting.","lat":"40.7612077","lon":"-73.9891128"},{"address":"303 W 42ND ST New York NY ","title":"","wheelc":false,"meetings":[["Fridays","4:30 PM","5:30 AM","Sp"],["Tuesdays","4:30 PM","4:30 PM","BB"],["Wednesdays","4:30 PM","5:30 PM","Sp"],["Thursdays","4:30 PM","5:30 PM","Sp"],["Saturdays","4:30 PM","5:30 PM","S"],["Mondays","4:30 PM","5:30 PM","Sp"]],"details":"","lat":"40.7575385","lon":"-73.9901368"},{"address":"139 W 31ST ST New York NY ","adrMeta":["3rd Floor"],"title":"St. Francis of Assisi Education Center","wheelc":false,"meetings":[["Mondays","12:00 PM","1:00 PM","C"],["Wednesdays","12:00 PM","1:00 PM","C"],["Fridays","12:00 PM","1:00 PM","C"]],"details":"No Meeting on Legal Holidays All meetings are non-smoking.","lat":"40.647412","lon":"-73.9480599"},{"address":"422 W 57TH ST New York NY ","adrMeta":["Upstairs"],"title":"Trinity Presbyterian Church","wheelc":false,"meetings":[["Sundays","5:00 PM","5:45 PM","B"],["Sundays","6:00 PM","7:00 PM","OD"]],"details":"","lat":"40.7682311","lon":"-73.9868768"},{"address":"211 W 30TH ST New York NY ","adrMeta":["Betw 7th & 8th Ave."],"title":"St. John's Hall","wheelc":false,"meetings":[["Wednesdays","6:00 PM","7:00 PM","Sp"],["Mondays","6:00 PM","7:00 PM","C"]],"details":"","lat":"40.7486793956479","lon":"-73.9927286472649"},{"address":"252 W 46TH ST New York NY ","adrMeta":["3rd Floor"],"title":"46th Street Club House","wheelc":false,"meetings":[["Saturdays","12:00 PM","1:00 PM","C"]],"details":"Women's Meeting","lat":"40.7593831","lon":"-73.9872329"},{"address":"1 W 53RD ST New York NY ","adrMeta":["3rd Floor"],"title":"St. Thomas Church","wheelc":true,"meetings":[["Saturdays","10:00 AM","11:00 AM","S"]],"details":"","lat":"40.7608523","lon":"-73.9765938"},{"address":"422 W 57TH ST New York NY ","title":"Trinity Presbyterian Church","wheelc":false,"meetings":[["Wednesdays","12:00 PM","1:00 PM","T"],["Thursdays","12:00 PM","1:00 PM","B"],["Fridays","12:00 PM","1:00 PM","B"],["Mondays","12:00 PM","1:00 PM","B"],["Tuesdays","12:00 PM","1:00 PM","B"],["Wednesdays","12:30 PM","1:30 PM","B"],["Thursdays","12:30 PM","1:30 PM","BB"],["Fridays","12:30 PM","1:30 PM","S"],["Mondays","12:30 PM","1:30 PM","OD"],["Tuesdays","12:30 PM","1:30 PM","Op"]],"details":"Tue.12:30 = T 1st Tuesday Beginners upstairs; other meetings in the chapel","lat":"40.7682311","lon":"-73.9868768"},{"address":"7 W 55TH ST New York NY ","adrMeta":["5th Floor"],"title":"Fifth Av Presbyterian Church","wheelc":true,"meetings":[["Wednesdays","12:00 AM","12:00 AM","Op"],["Wednesdays","12:00 AM","12:00 AM","B"],["Thursdays","12:30 PM","1:30 PM","S"],["Thursdays","12:30 PM","1:30 PM","B"],["Mondays","12:30 PM","1:30 PM","OD"],["Mondays","12:30 PM","1:30 PM","Op"],["Tuesdays","12:30 PM","1:30 PM","B"],["Tuesdays","12:30 PM","1:30 PM","OD"]],"details":"Monday thru Thursday Beginners Meeting 5th floor Monday thru Thursday Open Discussion 3rd floor Wednesday Step Meeting","lat":"40.7618823","lon":"-73.9751297"},{"address":"252 W 46TH ST New York NY ","title":"46th Street Club House","wheelc":false,"meetings":[["Saturdays","10:30 PM","11:30 PM","C"],["Sundays","10:30 PM","11:30 PM","C"],["Mondays","10:30 PM","11:30 PM","C"],["Tuesdays","10:30 PM","11:30 PM","C"],["Wednesdays","10:30 PM","11:30 PM","C"],["Thursdays","10:30 PM","11:30 PM","C"],["Fridays","10:30 PM","11:30 PM","C"]],"details":"","lat":"40.7593831","lon":"-73.9872329"},{"address":"729 7TH AVE New York NY ","adrMeta":["10th Floor small conference room"],"title":"The Actors Fund of America","wheelc":true,"meetings":[["Thursdays","5:30 PM","6:30 PM","C"]],"details":"Focus is on those in the entertainment industry. All are welcome. As Bill Sees It","lat":"40.7601119","lon":"-73.9837538"},{"address":"538 W 47TH ST New York NY ","title":"Apartment Building","wheelc":false,"meetings":[["Mondays","8:00 PM","9:00 PM","Op"],["Wednesdays","8:00 PM","9:00 PM","Sp"],["Fridays","8:00 PM","9:00 PM","Sp"]],"details":"All meetings are Open Discussion format.","lat":"40.7634021","lon":"-73.9948352"},{"address":"1000 TENTH AVE New York NY ","adrMeta":["8th Floor Room #8G49","Betw 58th & 59th St.","T 2nd & S Last Thursday","NOTE: On legal holidays"],"title":"Mount Sinai - Roosevelt Hospital","wheelc":true,"meetings":[["Mondays","7:30 PM","8:30 PM","T"],["Thursdays","7:30 PM","8:30 PM","S"]],"details":"Anniv. 1st Monday, T 2nd & S Last Thursday, NOTE: On legal holidays, the meeting meets on the 1st Floor Ask for the room at the reception desk)","lat":"40.7700536177104","lon":"-73.9877635987168"},{"address":"303 W 42ND ST New York NY ","adrMeta":["3rd Floor","Room #306"],"title":"","wheelc":false,"meetings":[["Tuesdays","7:30 PM","8:30 PM","BB"]],"details":"","lat":"40.7575385","lon":"-73.9901368"},{"address":"252 W 46TH ST New York NY ","adrMeta":["3rd Floor"],"title":"46th Street Club House","wheelc":false,"meetings":[["Mondays","9:15 PM","10:15 PM","CD"]],"details":"Big Book Workshop","lat":"40.7593831","lon":"-73.9872329"},{"address":"307 W 26TH ST New York NY ","title":"Upright Citizens Brigade Theatre","wheelc":false,"meetings":[["Wednesdays","12:00 PM","1:00 PM","S"],["Thursdays","12:00 PM","1:00 PM","C"],["Fridays","12:00 PM","1:00 PM","Sp"],["Mondays","12:00 PM","1:00 PM","OD"],["Tuesdays","12:00 PM","1:00 PM","Op"]],"details":"All meetings are non-smoking.","lat":"40.7474685","lon":"-73.9974137"},{"address":"405 W 59TH ST New York NY ","title":"St. Paul's Episcopal Parish House","wheelc":true,"meetings":[["Wednesdays","1:00 PM","2:00 PM","BB"]],"details":"Room LL2","lat":"40.7697538","lon":"-73.9857965"},{"address":"303 W 42ND ST New York NY ","adrMeta":["Betw 8th & 9th Ave.","Mon=Came To Believe"],"title":"","wheelc":false,"meetings":[["Sundays","12:00 AM","1:00 AM","Op"],["Mondays","12:00 AM","1:00 AM","S"],["Tuesdays","12:00 AM","1:00 AM","C"],["Wednesdays","12:00 AM","1:00 AM","BB"],["Thursdays","12:00 AM","1:00 AM","C"],["Fridays","12:00 AM","1:00 AM","Sp"],["Saturdays","12:00 AM","1:00 AM","C"]],"details":"T Last Sunday, Mon=Came To Believe, Last Sat. Open Anniversary Last Sat. meets at 252 West 46th Street","lat":"40.7575385","lon":"-73.9901368"},{"address":"422 W 57TH ST New York NY ","adrMeta":["Betw. 9th and 10th Ave."],"title":"Trinity Presbyterian Church ","wheelc":true,"meetings":[["Mondays","7:00 PM","8:00 PM","B"]],"details":"Open on Holidays.","lat":"40.7682311","lon":"-73.9868768"},{"address":"133 W 46TH ST New York NY ","adrMeta":["3rd Floor"],"title":"St. Mary the Virgin Church","wheelc":false,"meetings":[["Thursdays","6:00 AM","7:00 AM","B"],["Tuesdays","6:00 AM","7:00 AM","S"]],"details":"","lat":"40.6589343","lon":"-73.9348705"},{"address":"133 W 46TH ST New York NY ","adrMeta":["2nd & 3rd Floor","Betw. 6th & 7th Ave.","Wed.5:30=Grapevine Topic","Thu.12:30 St."],"title":"St. Mary the Virgin Church","wheelc":false,"meetings":[["Saturdays","10:00 AM","11:00 AM","C"],["Mondays","12:30 PM","1:30 PM","B"],["Mondays","12:30 PM","1:30 PM","OD"],["Thursdays","12:30 PM","1:30 PM","Op"],["Mondays","12:30 PM","1:30 PM","S"],["Thursdays","12:30 PM","1:30 PM","Sp"],["Tuesdays","12:30 PM","1:30 PM","C"],["Thursdays","12:30 PM","1:30 PM","Sp"],["Tuesdays","12:30 PM","1:30 PM","S"],["Tuesdays","12:30 PM","1:30 PM","B"],["Fridays","12:30 PM","1:30 PM","S"],["Fridays","12:30 PM","1:30 PM","C"],["Fridays","12:30 PM","1:30 PM","S"],["Wednesdays","12:30 PM","1:30 PM","B"],["Wednesdays","12:30 PM","1:30 PM","BB"],["Wednesdays","12:30 PM","1:30 PM","S"],["Sundays","5:00 PM","6:00 PM","B"],["Wednesdays","5:30 PM","6:30 PM","OD"],["Mondays","5:30 PM","6:30 PM","Op"],["Thursdays","5:30 PM","6:30 PM","C"],["Tuesdays","5:30 PM","6:30 PM","Sp"],["Fridays","5:30 PM","6:30 PM","C"]],"details":"Tue.Step=#'s 4-7, Wed.5:30=Grapevine Topic, Thu.12:30 Step=#'s 4-7 Thu.5:30=T last Thu.,Fri.BB=T last Fri. Fri.Step=#'s 8-12","lat":"40.6589343","lon":"-73.9348705"},{"address":"303 W 42ND ST New York NY ","adrMeta":["Room #306"],"title":"","wheelc":false,"meetings":[["Sundays","10:30 AM","11:30 AM","C"],["Mondays","10:30 AM","11:30 AM","C"],["Tuesdays","10:30 AM","11:30 AM","C"],["Wednesdays","10:30 AM","11:30 AM","C"],["Thursdays","10:30 AM","11:30 AM","C"],["Fridays","10:30 AM","11:30 AM","C"],["Saturdays","10:30 AM","11:30 AM","C"]],"details":"","lat":"40.7575385","lon":"-73.9901368"},{"address":"296 9TH AVE New York NY ","adrMeta":["2nd Floor"],"title":"Holy Apostles Church Rectory","wheelc":false,"meetings":[["Wednesdays","6:15 PM","7:15 PM","C"],["Mondays","6:15 PM","7:15 PM","B"],["Wednesdays","7:30 PM","8:45 PM","S"],["Mondays","7:45 PM","8:45 PM","C"],["Wednesdays","9:00 PM","10:00 PM","B"],["Mondays","9:00 PM","10:00 PM","Sp"]],"details":"Business meeting held on 1st Monday at 7:45pm LGBTQ Friendly. All are welcome.","lat":"40.7493539","lon":"-73.998973"},{"address":"139 W 31ST ST New York NY ","adrMeta":["3rd Floor"],"title":"St. Francis of Assisi Center","wheelc":false,"meetings":[["Sundays","6:00 PM","7:30 PM","S"],["Thursdays","6:00 PM","7:30 PM","OD"],["Saturdays","6:00 PM","7:30 PM","Op"]],"details":"All meetings are non-smoking.","lat":"40.647412","lon":"-73.9480599"},{"address":"1 W 53RD ST New York NY ","adrMeta":["3rd Floor"],"title":"St. Thomas Church","wheelc":true,"meetings":[["Tuesdays","12:30 PM","1:30 PM","OD"]],"details":"","lat":"40.7608523","lon":"-73.9765938"},{"address":"484 W 43RD ST New York NY ","adrMeta":["1st Floor","@ 43rd St."],"title":"Manhattan Plaza Health Club","wheelc":true,"meetings":[["Saturdays","7:00 PM","8:00 PM","C"],["Mondays","7:00 PM","8:00 PM","Sp"],["Tuesdays","7:00 PM","8:00 PM","BB"],["Thursdays","7:00 PM","8:00 PM","S"],["Fridays","7:00 PM","8:00 PM","B"]],"details":"Fri=Living Sober, Sat=Promises","lat":"40.7599913","lon":"-73.9948326"},{"address":"7 W 55TH ST New York NY ","title":"Fifth Av Presbyterian Church","wheelc":true,"meetings":[["Fridays","12:30 PM","1:30 PM","OD"]],"details":"","lat":"40.7618823","lon":"-73.9751297"},{"address":"252 West 46th St.","adrMeta":["3rd Floor"],"title":"46th Street Club House","wheelc":false,"meetings":[["Thursdays","9:15 PM","10:15 PM","S"]],"details":""},{"address":"4 W 43RD ST New York NY ","title":"The Learning Center","wheelc":true,"meetings":[["Mondays","12:30 AM","1:30 PM","C"],["Tuesdays","12:30 PM","1:30 PM","C"],["Wednesdays","12:30 PM","1:30 PM","S"],["Thursdays","12:30 PM","1:30 PM","B"],["Fridays","12:30 PM","1:30 PM","C"]],"details":"","lat":"40.7543885","lon":"-73.9812083"},{"address":"252 West 46th St.","adrMeta":["3rd Floor"],"title":"46th Street Club House","wheelc":false,"meetings":[["Saturdays","9:15 PM","10:15 PM","S"]],"details":"Rotating Step meeting."},{"address":"296 NINTH AVE New York NY ","adrMeta":["Rectory","1st Floor","@28th street","Enter at 9th avenue","small building south of the church 10001 Topic meeting"],"title":"Church of The Holy Apostles","wheelc":false,"meetings":[["Fridays","6:30 PM","7:30 PM","Sp"]],"details":"Topic meeting, focus is on Spirituality","lat":"40.7493539","lon":"-73.998973"},{"address":"1 W 53RD ST New York NY ","adrMeta":["3rd Floor"],"title":"St. Thomas Church Parish House","wheelc":false,"meetings":[["Tuesdays","7:45 AM","8:45 AM","C"]],"details":"Round Robin Meeting.","lat":"40.7608523","lon":"-73.9765938"},{"address":"210 W 31ST ST New York NY ","adrMeta":["Basement On Left"],"title":"St. John the Baptist Church","wheelc":false,"meetings":[["Thursdays","12:00 PM","1:00 PM","S"],["Tuesdays","12:00 PM","1:00 PM","C"],["Thursdays",null,null,"C"]],"details":"T Last Thursday; S other Thursdays All meetings are non-smoking.","lat":"40.6456042","lon":"-73.9481792"},{"address":"422 West 57th St.","title":"Trinity Presbyterian Church","wheelc":false,"meetings":[["Wednesdays","7:00 PM","8:15 PM","S"]],"details":"T-1st Wednesday"},{"address":"252 West 46th St.","adrMeta":["3rd Floor"],"title":"46th Street Club House","wheelc":false,"meetings":[["Sundays","9:15 PM","10:15 PM","B"]],"details":""},{"address":"134 W 29TH ST New York NY ","title":"","wheelc":true,"meetings":[["Tuesdays","6:00 PM","7:00 PM","OD"]],"details":"Agnostic- no prayer","lat":"40.7472463","lon":"-73.9917061"},{"address":"1000 TENTH AVE New York NY ","adrMeta":["8th Fl","Room #8G-49"],"title":"Mount Sinai - Roosevelt Hospital","wheelc":true,"meetings":[["Fridays","7:30 PM","8:30 PM","S"]],"details":"","lat":"40.7700536177104","lon":"-73.9877635987168"},{"address":"446 W 33RD ST New York NY ","adrMeta":["Betw. 9th & 10th Ave.","C 2nd","BB 3rd"],"title":"GMHC","wheelc":true,"meetings":[["Fridays","6:30 PM","7:45 PM","C"]],"details":"S 1st, C 2nd, BB 3rd, O Anniversary Meeting 4th Friday Women's Meeting.","lat":"40.753496","lon":"-73.9989428"},{"address":"423 West 46th St.","title":"St. Clements Church","wheelc":true,"meetings":[["Sundays","7:30 PM","8:30 PM","BB"]],"details":""},{"address":"252 W 46TH ST New York NY ","adrMeta":["3rd Floor"],"title":"46th Street Club House","wheelc":false,"meetings":[["Fridays","9:15 PM","10:15 PM","BB"]],"details":"Young People BB Meeting","lat":"40.7593831","lon":"-73.9872329"}]